{
"type": "FeatureCollection",
"name": "ports",
"crs": { "type": "name", "properties": { "name": "urn:ogc:def:crs:OGC:1.3:CRS84" } },
"features": [
{ "type": "Feature", "properties": { "title": "Messon" }, "geometry": { "type": "Point", "coordinates": [ 26.30318, 39.19663 ] } },
{ "type": "Feature", "properties": { "title": "Methymna, Methymne" }, "geometry": { "type": "Point", "coordinates": [ 26.17689, 39.36917 ] } },
{ "type": "Feature", "properties": { "title": "Panormos, Korsiai insula, Corsia?" }, "geometry": { "type": "Point", "coordinates": [ 26.4752, 37.5775 ] } },
{ "type": "Feature", "properties": { "title": "Drakanon, Draconium" }, "geometry": { "type": "Point", "coordinates": [ 26.3534, 37.6912 ] } },
{ "type": "Feature", "properties": { "title": "Akrite, Acrite, Acritas insula" }, "geometry": { "type": "Point", "coordinates": [ 26.736, 37.3802 ] } },
{ "type": "Feature", "properties": { "title": "Panormos, port of Phora & Patmos" }, "geometry": { "type": "Point", "coordinates": [ 26.5463, 37.325 ] } },
{ "type": "Feature", "properties": { "title": "Lakkion" }, "geometry": { "type": "Point", "coordinates": [ 26.8527, 37.1253 ] } },
{ "type": "Feature", "properties": { "title": "Kos, Cos, commercial port" }, "geometry": { "type": "Point", "coordinates": [ 27.2891, 36.8951 ] } },
{ "type": "Feature", "properties": { "title": "Nisyros, on Nisyros insula" }, "geometry": { "type": "Point", "coordinates": [ 27.1429, 36.6168 ] } },
{ "type": "Feature", "properties": { "title": "Telos" }, "geometry": { "type": "Point", "coordinates": [ 27.3324, 36.4595 ] } },
{ "type": "Feature", "properties": { "title": "Metaponti" }, "geometry": { "type": "Point", "coordinates": [ 27.8467, 36.5519 ] } },
{ "type": "Feature", "properties": { "title": "Chalcia, Calchia" }, "geometry": { "type": "Point", "coordinates": [ 27.6042, 36.2176 ] } },
{ "type": "Feature", "properties": { "title": "Rhodes, Akantia" }, "geometry": { "type": "Point", "coordinates": [ 28.22761, 36.44311 ] } },
{ "type": "Feature", "properties": { "title": "Lindus, Lindos, Thermydros" }, "geometry": { "type": "Point", "coordinates": [ 28.0882, 36.0913 ] } },
{ "type": "Feature", "properties": { "title": "Camire, Kamiros, Kerama, Bema?" }, "geometry": { "type": "Point", "coordinates": [ 27.9212, 36.3362 ] } },
{ "type": "Feature", "properties": { "title": "Abydos" }, "geometry": { "type": "Point", "coordinates": [ 26.411, 40.1942 ] } },
{ "type": "Feature", "properties": { "title": "Tenedos, Tenedhos insula" }, "geometry": { "type": "Point", "coordinates": [ 26.051, 39.817 ] } },
{ "type": "Feature", "properties": { "title": "Larisa, Ptolemais" }, "geometry": { "type": "Point", "coordinates": [ 26.1456, 39.6156 ] } },
{ "type": "Feature", "properties": { "title": "Klazomenai, Clazomenae, Clazomenes, Polichne" }, "geometry": { "type": "Point", "coordinates": [ 26.77774, 38.36786 ] } },
{ "type": "Feature", "properties": { "title": "Trogilion, Trogyllium Prom." }, "geometry": { "type": "Point", "coordinates": [ 27.01623, 37.64909 ] } },
{ "type": "Feature", "properties": { "title": "Posideion, Posidio Prom." }, "geometry": { "type": "Point", "coordinates": [ 27.20787, 37.34739 ] } },
{ "type": "Feature", "properties": { "title": "Myndus, Myndos, Neaoplis" }, "geometry": { "type": "Point", "coordinates": [ 27.22995, 37.06067 ] } },
{ "type": "Feature", "properties": { "title": "Ceramus, Keramos" }, "geometry": { "type": "Point", "coordinates": [ 27.9526, 37.0376 ] } },
{ "type": "Feature", "properties": { "title": "Palaia Knidos, Ancient Knidos" }, "geometry": { "type": "Point", "coordinates": [ 27.68585, 36.73097 ] } },
{ "type": "Feature", "properties": { "title": "Phalaro" }, "geometry": { "type": "Point", "coordinates": [ 28.14439, 36.65003 ] } },
{ "type": "Feature", "properties": { "title": "Physkos, Physcus" }, "geometry": { "type": "Point", "coordinates": [ 28.269, 36.8548 ] } },
{ "type": "Feature", "properties": { "title": "Pityoussa\/Lampsacus" }, "geometry": { "type": "Point", "coordinates": [ 26.69916, 40.34669 ] } },
{ "type": "Feature", "properties": { "title": "Cyzicus" }, "geometry": { "type": "Point", "coordinates": [ 27.88319, 40.38556 ] } },
{ "type": "Feature", "properties": { "title": "Parium\/Col. Gemella Iulia *Hadriana" }, "geometry": { "type": "Point", "coordinates": [ 27.0691, 40.4205 ] } },
{ "type": "Feature", "properties": { "title": "Zeleia" }, "geometry": { "type": "Point", "coordinates": [ 27.59614, 40.20357 ] } },
{ "type": "Feature", "properties": { "title": "Adramyttium" }, "geometry": { "type": "Point", "coordinates": [ 26.93632, 39.50236 ] } },
{ "type": "Feature", "properties": { "title": "Antigoneia\/(Col. Augusta) Alexandria Troas" }, "geometry": { "type": "Point", "coordinates": [ 26.15475, 39.75647 ] } },
{ "type": "Feature", "properties": { "title": "Assos\/Apollonia" }, "geometry": { "type": "Point", "coordinates": [ 26.33836, 39.49111 ] } },
{ "type": "Feature", "properties": { "title": "Chios" }, "geometry": { "type": "Point", "coordinates": [ 26.13423, 38.37641 ] } },
{ "type": "Feature", "properties": { "title": "Cyme" }, "geometry": { "type": "Point", "coordinates": [ 26.93922, 38.76069 ] } },
{ "type": "Feature", "properties": { "title": "Elaea" }, "geometry": { "type": "Point", "coordinates": [ 27.05526, 38.94164 ] } },
{ "type": "Feature", "properties": { "title": "Erythrai" }, "geometry": { "type": "Point", "coordinates": [ 26.47994, 38.38236 ] } },
{ "type": "Feature", "properties": { "title": "Magnesia ad Sipylum" }, "geometry": { "type": "Point", "coordinates": [ 27.48497, 38.61068 ] } },
{ "type": "Feature", "properties": { "title": "Mytilene" }, "geometry": { "type": "Point", "coordinates": [ 26.54705, 39.11048 ] } },
{ "type": "Feature", "properties": { "title": "Pergamum" }, "geometry": { "type": "Point", "coordinates": [ 27.18453, 39.13121 ] } },
{ "type": "Feature", "properties": { "title": "Philadelpheia" }, "geometry": { "type": "Point", "coordinates": [ 28.52379, 38.32734 ] } },
{ "type": "Feature", "properties": { "title": "Sardis\/Hyde?" }, "geometry": { "type": "Point", "coordinates": [ 28.04029, 38.48831 ] } },
{ "type": "Feature", "properties": { "title": "Smyrna\/Eurydikeia" }, "geometry": { "type": "Point", "coordinates": [ 27.14139, 38.4172 ] } },
{ "type": "Feature", "properties": { "title": "Stratonicaea\/Hadrianopolis" }, "geometry": { "type": "Point", "coordinates": [ 27.80176, 39.14211 ] } },
{ "type": "Feature", "properties": { "title": "Teos" }, "geometry": { "type": "Point", "coordinates": [ 26.7854, 38.18549 ] } },
{ "type": "Feature", "properties": { "title": "Thyateira" }, "geometry": { "type": "Point", "coordinates": [ 27.84488, 38.91072 ] } },
{ "type": "Feature", "properties": { "title": "Alabanda\/Antiocheia Chrysaoron" }, "geometry": { "type": "Point", "coordinates": [ 27.9709, 37.59739 ] } },
{ "type": "Feature", "properties": { "title": "Bargylia" }, "geometry": { "type": "Point", "coordinates": [ 27.58804, 37.19578 ] } },
{ "type": "Feature", "properties": { "title": "Cnidus" }, "geometry": { "type": "Point", "coordinates": [ 27.37284, 36.68818 ] } },
{ "type": "Feature", "properties": { "title": "Colophon\/Colophon ad Mare\/Notion" }, "geometry": { "type": "Point", "coordinates": [ 27.20085, 37.99528 ] } },
{ "type": "Feature", "properties": { "title": "Ephesus\/Arsinoe(ia)" }, "geometry": { "type": "Point", "coordinates": [ 27.34031, 37.94076 ] } },
{ "type": "Feature", "properties": { "title": "Halicarnassus\/Halikarnassos" }, "geometry": { "type": "Point", "coordinates": [ 27.4202, 37.0429 ] } },
{ "type": "Feature", "properties": { "title": "Iasos" }, "geometry": { "type": "Point", "coordinates": [ 27.58507, 37.27884 ] } },
{ "type": "Feature", "properties": { "title": "Magnesia ad Maeandrum\/Leukophrys" }, "geometry": { "type": "Point", "coordinates": [ 27.52604, 37.85055 ] } },
{ "type": "Feature", "properties": { "title": "Miletus" }, "geometry": { "type": "Point", "coordinates": [ 27.27832, 37.5229 ] } },
{ "type": "Feature", "properties": { "title": "Mylasa" }, "geometry": { "type": "Point", "coordinates": [ 27.79024, 37.30275 ] } },
{ "type": "Feature", "properties": { "title": "Nysa\/Athymbra" }, "geometry": { "type": "Point", "coordinates": [ 28.1481, 37.89559 ] } },
{ "type": "Feature", "properties": { "title": "Priene\/‘Lince’?" }, "geometry": { "type": "Point", "coordinates": [ 27.29833, 37.66 ] } },
{ "type": "Feature", "properties": { "title": "Samos" }, "geometry": { "type": "Point", "coordinates": [ 26.94448, 37.68825 ] } },
{ "type": "Feature", "properties": { "title": "Stratonikeia" }, "geometry": { "type": "Point", "coordinates": [ 28.06185, 37.31371 ] } },
{ "type": "Feature", "properties": { "title": "Tralles\/Dia\/Seleuceia ad Maeandrum\/Kaisareia" }, "geometry": { "type": "Point", "coordinates": [ 27.83904, 37.85663 ] } },
{ "type": "Feature", "properties": { "title": "Blaundos" }, "geometry": { "type": "Point", "coordinates": [ 29.20977, 38.35729 ] } },
{ "type": "Feature", "properties": { "title": "Antiochia ad Maeandrum" }, "geometry": { "type": "Point", "coordinates": [ 28.54828, 37.87354 ] } },
{ "type": "Feature", "properties": { "title": "Aphrodisias" }, "geometry": { "type": "Point", "coordinates": [ 28.72378, 37.70858 ] } },
{ "type": "Feature", "properties": { "title": "Arykanda" }, "geometry": { "type": "Point", "coordinates": [ 30.05992, 36.51352 ] } },
{ "type": "Feature", "properties": { "title": "Balboura" }, "geometry": { "type": "Point", "coordinates": [ 29.58114, 36.95522 ] } },
{ "type": "Feature", "properties": { "title": "Caunus" }, "geometry": { "type": "Point", "coordinates": [ 28.62369, 36.82709 ] } },
{ "type": "Feature", "properties": { "title": "Gagai\/Palaion Teichos" }, "geometry": { "type": "Point", "coordinates": [ 30.3452, 36.29112 ] } },
{ "type": "Feature", "properties": { "title": "Herakleia Salbakes" }, "geometry": { "type": "Point", "coordinates": [ 29.0035, 37.63288 ] } },
{ "type": "Feature", "properties": { "title": "Kyaneai" }, "geometry": { "type": "Point", "coordinates": [ 29.81919, 36.24657 ] } },
{ "type": "Feature", "properties": { "title": "Limyra" }, "geometry": { "type": "Point", "coordinates": [ 30.17119, 36.34375 ] } },
{ "type": "Feature", "properties": { "title": "Myra" }, "geometry": { "type": "Point", "coordinates": [ 29.98737, 36.2563 ] } },
{ "type": "Feature", "properties": { "title": "Oenoanda\/Termessos Mikra" }, "geometry": { "type": "Point", "coordinates": [ 29.55337, 36.81071 ] } },
{ "type": "Feature", "properties": { "title": "Olympus\/Hadrianopolis" }, "geometry": { "type": "Point", "coordinates": [ 30.47336, 36.39526 ] } },
{ "type": "Feature", "properties": { "title": "Patara\/Arsinoe" }, "geometry": { "type": "Point", "coordinates": [ 29.3145, 36.26179 ] } },
{ "type": "Feature", "properties": { "title": "Phaselis" }, "geometry": { "type": "Point", "coordinates": [ 30.54905, 36.52281 ] } },
{ "type": "Feature", "properties": { "title": "Phellos" }, "geometry": { "type": "Point", "coordinates": [ 29.66508, 36.24243 ] } },
{ "type": "Feature", "properties": { "title": "Telmessos" }, "geometry": { "type": "Point", "coordinates": [ 29.11415, 36.62214 ] } },
{ "type": "Feature", "properties": { "title": "Tlos" }, "geometry": { "type": "Point", "coordinates": [ 29.42687, 36.55251 ] } },
{ "type": "Feature", "properties": { "title": "Tripolis ad Maeandrum\/Apollonia ad Maeandrum\/Antoniopolis" }, "geometry": { "type": "Point", "coordinates": [ 28.96088, 38.05047 ] } },
{ "type": "Feature", "properties": { "title": "Xanthos" }, "geometry": { "type": "Point", "coordinates": [ 29.31836, 36.35593 ] } }
]
}
