{
"type": "FeatureCollection",
"name": "ports",
"crs": { "type": "name", "properties": { "name": "urn:ogc:def:crs:OGC:1.3:CRS84" } },
"features": [
{ "type": "Feature", "properties": { "title": "Messon" }, "geometry": { "type": "Point", "coordinates": [ 26.30318, 39.19663 ] } },
{ "type": "Feature", "properties": { "title": "Methymna, Methymne" }, "geometry": { "type": "Point", "coordinates": [ 26.17689, 39.36917 ] } },
{ "type": "Feature", "properties": { "title": "Panormos, Korsiai insula, Corsia?" }, "geometry": { "type": "Point", "coordinates": [ 26.4752, 37.5775 ] } },
{ "type": "Feature", "properties": { "title": "Drakanon, Draconium" }, "geometry": { "type": "Point", "coordinates": [ 26.3534, 37.6912 ] } },
{ "type": "Feature", "properties": { "title": "Akrite, Acrite, Acritas insula" }, "geometry": { "type": "Point", "coordinates": [ 26.736, 37.3802 ] } },
{ "type": "Feature", "properties": { "title": "Panormos, port of Phora & Patmos" }, "geometry": { "type": "Point", "coordinates": [ 26.5463, 37.325 ] } },
{ "type": "Feature", "properties": { "title": "Lakkion" }, "geometry": { "type": "Point", "coordinates": [ 26.8527, 37.1253 ] } },
{ "type": "Feature", "properties": { "title": "Kos, Cos, commercial port" }, "geometry": { "type": "Point", "coordinates": [ 27.2891, 36.8951 ] } },
{ "type": "Feature", "properties": { "title": "Nisyros, on Nisyros insula" }, "geometry": { "type": "Point", "coordinates": [ 27.1429, 36.6168 ] } },
{ "type": "Feature", "properties": { "title": "Telos" }, "geometry": { "type": "Point", "coordinates": [ 27.3324, 36.4595 ] } },
{ "type": "Feature", "properties": { "title": "Metaponti" }, "geometry": { "type": "Point", "coordinates": [ 27.8467, 36.5519 ] } },
{ "type": "Feature", "properties": { "title": "Lindus, Lindos, Thermydros" }, "geometry": { "type": "Point", "coordinates": [ 28.0882, 36.0913 ] } },
{ "type": "Feature", "properties": { "title": "Camire, Kamiros, Kerama, Bema?" }, "geometry": { "type": "Point", "coordinates": [ 27.9212, 36.3362 ] } },
{ "type": "Feature", "properties": { "title": "Abydos" }, "geometry": { "type": "Point", "coordinates": [ 26.411, 40.1942 ] } },
{ "type": "Feature", "properties": { "title": "Tenedos, Tenedhos insula" }, "geometry": { "type": "Point", "coordinates": [ 26.051, 39.817 ] } },
{ "type": "Feature", "properties": { "title": "Larisa, Ptolemais" }, "geometry": { "type": "Point", "coordinates": [ 26.1456, 39.6156 ] } },
{ "type": "Feature", "properties": { "title": "Klazomenai, Clazomenae, Clazomenes, Polichne" }, "geometry": { "type": "Point", "coordinates": [ 26.77774, 38.36786 ] } },
{ "type": "Feature", "properties": { "title": "Trogilion, Trogyllium Prom." }, "geometry": { "type": "Point", "coordinates": [ 27.01623, 37.64909 ] } },
{ "type": "Feature", "properties": { "title": "Posideion, Posidio Prom." }, "geometry": { "type": "Point", "coordinates": [ 27.20787, 37.34739 ] } },
{ "type": "Feature", "properties": { "title": "Myndus, Myndos, Neaoplis" }, "geometry": { "type": "Point", "coordinates": [ 27.22995, 37.06067 ] } },
{ "type": "Feature", "properties": { "title": "Ceramus, Keramos" }, "geometry": { "type": "Point", "coordinates": [ 27.9526, 37.0376 ] } },
{ "type": "Feature", "properties": { "title": "Palaia Knidos, Ancient Knidos" }, "geometry": { "type": "Point", "coordinates": [ 27.68585, 36.73097 ] } },
{ "type": "Feature", "properties": { "title": "Phalaro" }, "geometry": { "type": "Point", "coordinates": [ 28.14439, 36.65003 ] } },
{ "type": "Feature", "properties": { "title": "Physkos, Physcus" }, "geometry": { "type": "Point", "coordinates": [ 28.269, 36.8548 ] } },
{ "type": "Feature", "properties": { "title": "Alexandria" }, "geometry": { "type": "Point", "coordinates": [ 29.89443, 31.20557 ] } }
]
}
